{
    "routes": [
        {
            "name": "Camden Town",
            "startLat": "51.541837",
            "startLng": "-0.139199",
            "endLat": "51.550396",
            "endLng": "-0.140526",
            "day": "Sunday",
            "time": "9am",
            "highlights": "Camden Lock. Camden Market. Roundhouse. Camden High Street. Electric Ballroom.",
            "image": "camden.jpg"
        },
        {
            "name": "Regents Park",
            "startLat": "51.523751",
            "startLng": "-0.154577",
            "endLat": "51.541565",
            "endLng": "-0.161842",
            "day": "Sunday",
            "time": "10am",
            "highlights": "Rose Garden. Boating Lakes. Mosque. Devonshire Terrace. Open Air Theatre. Camden Lock. Regents Canal.",
            "image": "regentspark.jpg"
        },
        {
            "name": "Soho",
            "startLat": "51.515173",
            "startLng": "-0.132238",
            "endLat": "51.511625",
            "endLng": "-0.137194",
            "day": "Saturday",
            "time": "9am",
            "highlights": "Old Compton Street. Soho Square. China Town. Golden Square. Theatre Land. Italian Soho.",
            "image": "soho.jpg"
        },
        {
            "name": "Hampstead Heath",
            "startLat": "51.555236",
            "startLng": "-0.151021",
            "endLat": "51.572062",
            "endLng": "-0.167575",
            "day": "Sunday",
            "time": "9am",
            "highlights": "Jack Straws Castle. Kenwood. Parliament Hill. Hampstead Village. Highgate Village.",
            "image": "hampsteadheath.jpg"
        },
        {
            "name": "Greenwich",
            "startLat": "51.483361",
            "startLng": "-0.009504",
            "endLat": "51.467503",
            "endLng": "0.009048",
            "day": "Sunday",
            "time": "9am",
            "highlights": "Cutty Sark. Greenwich Time Museum. The Meridian. Blackheath. Maritime Museum. Greenwich Park.",
            "image": "greenwich.jpg"
        },
        {
            "name": "Hyde Park",
            "startLat": "51.510197",
            "startLng": "-0.196234",
            "endLat": "51.503453",
            "endLng": "-0.204237",
            "day": "Saturday",
            "time": "10am",
            "highlights": "Hyde Park Corner. Serpentine. Speakers Corner. Hyde Park Gallery. Queensway. Bayswater.",
            "image": "hydepark.jpg"
        },
        {
            "name": "Southbank",
            "startLat": "51.507789",
            "startLng": "-0.114468",
            "endLat": "51.504348",
            "endLng": "-0.114468",
            "day": "Sunday",
            "time": "11am",
            "highlights": "National Theatre. Potters Fields. London Bridge. Tower Bridge. The Golden Hind. HMS Belfast. Southwark Bridge.",
            "image": "southbank.jpg"
        },
        {
            "name": "City of London",
            "startLat": "51.506997",
            "startLng": "-0.071797",
            "endLat": "51.521948",
            "endLng": "-0.093819",
            "day": "Sunday",
            "time": "11am",
            "highlights": "St Pauls. Lloyds of London. The Gherkin. The Tower of London. St Olav's Church. London Wall. The Barbican.",
            "image": "cityoflondon.jpg"
        },
        {
            "name": "Wapping",
            "startLat": "51.506997",
            "startLng": "-0.071797",
            "endLat": "51.504347",
            "endLng": "-0.056115",
            "day": "Sunday",
            "time": "11am",
            "highlights": "St Katherines Dock. Tobacco Wharf. Tower Bridge. Vintners Wharf. The Captain Kidd.",
            "image": "wapping.jpg"
        },
        {
            "name": "Bloomsbury",
            "startLat": "51.518811",
            "startLng": "-0.122627",
            "endLat": "51.526648",
            "endLng": "-0.132176",
            "day": "Sunday",
            "time": "9am",
            "highlights": "Coram Fields. Senate House. British Museum. Friends House. Russel Square. Bedford Square.",
            "image": "bloomsbury.jpg"
        },
        {
            "name": "Notting Hill",
            "startLat": "51.509669",
            "startLng": "-0.189522",
            "endLat": "51.521082",
            "endLng": "-0.200776",
            "day": "Sunday",
            "time": "9am",
            "highlights": "Hyde Park. Portobello Road. The Churchill. Greek Orthodox Cathedral. Notting Hill Movie Locations.",
            "image": "nottinghill.jpg"
        },
        {
            "name": "Fitzrovia",
            "startLat": "51.523172",
            "startLng": "-0.14638",
            "endLat": "51.51904",
            "endLng": "-0.130096",
            "day": "Sunday",
            "time": "9am",
            "highlights": "Park Square. Cavendish Square. The Cartoon Museum. Charlotte Street. BT Tower.",
            "image": "fitzrovia.jpg"
        },
        {
            "name": "Kensington and Chelsea",
            "startLat": "51.497049",
            "startLng": "-0.169995",
            "endLat": "51.480747",
            "endLng": "-0.16512",
            "day": "Sunday",
            "time": "9am",
            "highlights": "Kings Road. Sloane Square. Stamford Bridge. Army Museum. Chelsea Hospital. Chelsea Harbour.",
            "image": "kensingtonchelsea.jpg"
        },
        {
            "name": "Covent Garden",
            "startLat": "51.507489",
            "startLng": "-0.122273",
            "endLat": "51.518811",
            "endLng": "-0.122627",
            "day": "Saturday",
            "time": "9am",
            "highlights": "Covent Garden Piazza. The Transport Museum. The Strand. Trafalgar Square. National Gallery.",
            "image": "coventgarden.jpg"
        },
        {
            "name": "East End",
            "startLat": "51.520133",
            "startLng": "-0.076662",
            "endLat": "51.516611",
            "endLng": "-0.040871",
            "day": "Sunday",
            "time": "9am",
            "highlights": "Spitalfields. St Luke's Church. Brick Lane. The Truman Brewery. Whitechapel. Tayyab's.",
            "image": "eastend.jpg"
        },
        {
            "name": "Hoxton",
            "startLat": "51.525686",
            "startLng": "-0.087377",
            "endLat": "51.548627",
            "endLng": "-0.092146",
            "day": "Saturday",
            "time": "9am",
            "highlights": "Printworks. St Leonards Church. Boundary Gardens. Wesley's Chapel.",
            "image": "hoxton.jpg"
        },
        {
            "name": "Clerkenwell",
            "startLat": "51.518575",
            "startLng": "-0.096838",
            "endLat": "51.530006",
            "endLng": "-0.108412",
            "day": "Sunday",
            "time": "9am",
            "highlights": "Lenin's House. Bunhill Fields. Church of St Peter. St John's Gate. Spitalfields. Barbican. Exmouth Street. Grays Inn.",
            "image": "clerkenwell.jpg"
        },
        {
            "name": "Westminster",
            "startLat": "51.491413",
            "startLng": "-0.12769",
            "endLat": "51.50677",
            "endLng": "-0.142812",
            "day": "Sunday",
            "time": "9am",
            "highlights": "Green Park. St James Park. Buckingham Palace. The Mall. Trafalgar Square. The ICA. Carlton Terrace.",
            "image": "wesminster.jpg"
        },
        {
            "name": "Belgravia",
            "startLat": "51.504393",
            "startLng": "-0.152834",
            "endLat": "51.492266",
            "endLng": "-0.156427",
            "day": "Sunday",
            "time": "10am",
            "highlights": "Sloane Square. Eaton Square. Hyde Park Corner. Belgrave Square Gardens. Embassies. Harrods.",
            "image": "belgravia.jpg"
        }
    ]
}